{
  "type": "FeatureCollection",
  "features": [
    {
      "type": "Feature",
      "properties": {
        "marker-color": "#7e7e7e",
        "marker-size": "medium",
        "marker-symbol": "",
        "name": "Wrocław",
        "id": "Wrocław",
        "date": "2019-07-29 10:46:42"
      },
      "geometry": {
        "type": "Point",
        "coordinates": [
          17.0343017578125,
          51.10977326953468
        ]
      }
    },
    {
      "type": "Feature",
      "geometry": {
        "type": "Point",
        "coordinates": [
          18.524694442749023,
          51.35692596435547
        ]
      },
      "properties": {
        "date": "2019-07-29 11:46:42",
        "name": "MOP Chojny Południe",
        "address": "Lututowska\n98-270 Złoczew\nPolska",
        "id": "MOP Chojny Południe"
      }
    },
    {
      "type": "Feature",
      "geometry": {
        "type": "Point",
        "coordinates": [
          21.247623443603516,
          52.44184112548828
        ]
      },
      "properties": {
        "date": "2019-07-29 16:13:54",
        "name": "Lotos",
        "address": "05-250 Emilianów\nPolska",
        "id": "Lotos"
      }
    },
    {
      "type": "Feature",
      "geometry": {
        "type": "Point",
        "coordinates": [
          22.398780822753906,
          53.05810546875
        ]
      },
      "properties": {
        "date": "2019-07-29 17:58:03",
        "name": "MOP Kossaki Borowe",
        "address": "18-315 Kossaki Borowe\nPolska",
        "id": "MOP Kossaki Borowe"
      }
    },
    {
      "type": "Feature",
      "geometry": {
        "type": "Point",
        "coordinates": [
          22.79774284362793,
          53.104042053222656
        ]
      },
      "properties": {
        "date": "2019-07-29 18:55:47",
        "name": "Kemping Kurowo",
        "address": "Kurowo-Kolonia\nKurowo 10\n18-204 Kurowo\nPolska",
        "id": "Kemping Kurowo"
      }
    },
	{
      "type": "Feature",
      "geometry": {
        "type": "Point",
        "coordinates": [
          22.79774284362793,
          53.104042053222656
        ]
      },
      "properties": {
        "date": "2019-07-30 06:37:59",
        "name": "Kemping Kurowo",
        "address": "Kurowo-Kolonia\nKurowo 10\n18-204 Kurowo\nPolska",
        "id": "Kemping Kurowo"
      }
    },
    {
      "type": "Feature",
      "geometry": {
        "type": "Point",
        "coordinates": [
          22.770950317382812,
          53.21309280395508
        ]
      },
      "properties": {
        "marker-color": "#7e7e7e",
        "marker-size": "medium",
        "marker-symbol": "",
        "date": "2019-07-30 07:40:47",
        "name": "Zamek Tykocin",
        "address": "Puchalskiego 316-080 TykocinPolska",
        "id": "Zamek Tykocin"
      }
    },
    {
      "type": "Feature",
      "geometry": {
        "type": "Point",
        "coordinates": [
          22.773399353027344,
          53.20735549926758
        ]
      },
      "properties": {
        "date": "2019-07-30 11:46:41",
        "name": "Pierogarnia Tykocińska",
        "address": "Plac Stefana Czarnieckiego 11\n16-080 Tykocin\nPolska",
        "id": "Pierogarnia Tykocińska"
      }
    },
    {
      "type": "Feature",
      "geometry": {
        "type": "Point",
        "coordinates": [
          22.73787975311279,
          53.20692895824213
        ]
      },
      "properties": {
        "marker-color": "#7e7e7e",
        "marker-size": "medium",
        "marker-symbol": "",
        "date": "2019-07-30 13:07:12",
        "name": "Europejska Wieś Bociania",
        "address": "16-080 TykocinPolska",
        "id": "Europejska Wieś Bociania"
      }
    },
    {
      "type": "Feature",
      "geometry": {
        "type": "Point",
        "coordinates": [
          22.610610961914062,
          53.287174224853516
        ]
      },
      "properties": {
        "date": "2019-07-30 14:40:31",
        "name": "Ścieżka „Długa Luka”",
        "address": "19-104\nPolska",
        "id": "Ścieżka „Długa Luka”"
      }
    },
    {
      "type": "Feature",
      "geometry": {
        "type": "Point",
        "coordinates": [
          22.71909523010254,
          53.491729736328125
        ]
      },
      "properties": {
        "date": "2019-07-30 15:53:21",
        "name": "Agroturystyka Sośniaki",
        "address": "Bednarska 9\n19-110 Goniądz\nPolska",
        "id": "Agroturystyka Sośniaki"
      }
    },
	{
      "type": "Feature",
      "geometry": {
        "type": "Point",
        "coordinates": [
          22.71909523010254,
          53.491729736328125
        ]
      },
      "properties": {
        "date": "2019-07-30 16:20:14",
        "name": "Agroturystyka Sośniaki",
        "address": "Bednarska 9\n19-110 Goniądz\nPolska",
        "id": "Agroturystyka Sośniaki"
      }
    },
    {
      "type": "Feature",
      "geometry": {
        "type": "Point",
        "coordinates": [
          22.71909523010254,
          53.491729736328125
        ]
      },
      "properties": {
        "date": "2019-08-01 06:30:14",
        "name": "Agroturystyka Sośniaki",
        "address": "Bednarska 9\n19-110 Goniądz\nPolska",
        "id": "Agroturystyka Sośniaki"
      }
    },
    {
      "type": "Feature",
      "geometry": {
        "type": "Point",
        "coordinates": [
          22.65715789794922,
          53.4737663269043
        ]
      },
      "properties": {
        "date": "2019-08-01 06:51:38",
        "name": "Biebrzański Park Narodowy - Siedziba Dyrekcji",
        "address": "Osowiec-Twierdza 8\n19-110 Osowiec-Twierdza\nPolska",
        "id": "Biebrzański Park Narodowy - Siedziba Dyrekcji"
      }
    },
    {
      "type": "Feature",
      "geometry": {
        "type": "Point",
        "coordinates": [
          22.895017623901367,
          53.58926010131836
        ]
      },
      "properties": {
        "date": "2019-08-01 12:29:34",
        "name": "Farm Manor House At The End of the World - Biebrza Valley",
        "address": "Kopytkowo 4\n16-310 Kopytkowo\nPolska",
        "id": "Farm Manor House At The End of the World - Biebrza Valley"
      }
    },
    {
      "type": "Feature",
      "geometry": {
        "type": "Point",
        "coordinates": [
          22.93071937561035,
          53.610042572021484
        ]
      },
      "properties": {
        "date": "2019-08-01 13:00:49",
        "name": "Śluza Dębowo",
        "address": "16-310 Jagłowo\nPolska",
        "id": "Śluza Dębowo"
      }
    },
    {
      "type": "Feature",
      "geometry": {
        "type": "Point",
        "coordinates": [
          23.030611038208008,
          53.8303108215332
        ]
      },
      "properties": {
        "date": "2019-08-01 16:56:40",
        "name": "Krowi Róg",
        "address": "Unnamed Road\n16-300 Augustów\nPolska",
        "id": "Krowi Róg"
      }
    },
	{
      "type": "Feature",
      "geometry": {
        "type": "Point",
        "coordinates": [
          22.98191785812378,
          53.83481551098554
        ]
      },
      "properties": {
        "date": "2019-08-01 19:10:15",
        "name": "Parafia Świętej Rodziny",
        "address": "Liliowa 1\n16-300 Augustów\nPolska",
        "id": "Parafia Świętej Rodziny"
      }
    },
    {
      "type": "Feature",
      "geometry": {
        "type": "Point",
        "coordinates": [
          22.98191785812378,
          53.83481551098554
        ]
      },
      "properties": {
        "date": "2019-08-02 06:10:15",
        "name": "Parafia Świętej Rodziny",
        "address": "Liliowa 1\n16-300 Augustów\nPolska",
        "id": "Parafia Świętej Rodziny"
      }
    },
    {
      "type": "Feature",
      "geometry": {
        "type": "Point",
        "coordinates": [
          22.98577880859375,
          53.854042053222656
        ]
      },
      "properties": {
        "date": "2019-08-02 07:21:53",
        "name": "Plaża Miejska w Augustowie",
        "address": "16-300 Augustów\nPolska",
        "id": "Plaża Miejska w Augustowie"
      }
    },
    {
      "type": "Feature",
      "geometry": {
        "type": "Point",
        "coordinates": [
          23.009796142578125,
          54.08428955078125
        ]
      },
      "properties": {
        "date": "2019-08-02 13:51:39",
        "name": "Siedziba Parku Narodowego Wigier",
        "address": "Krzywe 82\n16-402 Krzywe\nPolska",
        "id": "Siedziba Parku Narodowego Wigier"
      }
    },
    {
      "type": "Feature",
      "geometry": {
        "type": "Point",
        "coordinates": [
          23.075651168823242,
          54.07533264160156
        ]
      },
      "properties": {
        "date": "2019-08-02 14:05:38",
        "name": "Muzeum Wigier",
        "address": "Stary Folwark 50\n16-402 Stary Folwark\nPolska",
        "id": "Muzeum Wigier"
      }
    },
    {
      "type": "Feature",
      "geometry": {
        "type": "Point",
        "coordinates": [
          23.009796142578125,
          54.08428955078125
        ]
      },
      "properties": {
        "date": "2019-08-03 10:35:59",
        "name": "Siedziba Parku Narodowego Wigier",
        "address": "Krzywe 82\n16-402 Krzywe\nPolska",
        "id": "Siedziba Parku Narodowego Wigier"
      }
    },
    {
      "type": "Feature",
      "geometry": {
        "type": "Point",
        "coordinates": [
          23.009796142578125,
          54.08428955078125
        ]
      },
      "properties": {
        "date": "2019-08-03 12:13:30",
        "name": "Siedziba Parku Narodowego Wigier",
        "address": "Krzywe 82\n16-402 Krzywe\nPolska",
        "id": "Siedziba Parku Narodowego Wigier"
      }
    },
    {
      "type": "Feature",
      "geometry": {
        "type": "Point",
        "coordinates": [
          23.084047317504883,
          54.06959533691406
        ]
      },
      "properties": {
        "date": "2019-08-03 14:04:43",
        "name": null,
        "address": "",
        "id": null
      }
    },
    {
      "type": "Feature",
      "geometry": {
        "type": "Point",
        "coordinates": [
          23.084047317504883,
          54.06959533691406
        ]
      },
      "properties": {
        "marker-color": "#7e7e7e",
        "marker-size": "medium",
        "marker-symbol": "",
        "date": "2019-08-03 17:07:45",
        "name": "Kęping u Haliny",
        "address": "",
        "id": "Kęping u Haliny"
      }
    },
	{
      "type": "Feature",
      "geometry": {
        "type": "Point",
        "coordinates": [
          23.084047317504883,
          54.06959533691406
        ]
      },
      "properties": {
        "marker-color": "#7e7e7e",
        "marker-size": "medium",
        "marker-symbol": "",
        "date": "2019-08-04 10:07:45",
        "name": "Kęping u Haliny",
        "address": "",
        "id": "Kęping u Haliny"
      }
    },
    {
      "type": "Feature",
      "geometry": {
        "type": "Point",
        "coordinates": [
          23.009796142578125,
          54.08428955078125
        ]
      },
      "properties": {
        "date": "2019-08-04 15:43:53",
        "name": "Wigry National Park",
        "address": "Krzywe 82\n16-402 Krzywe\nPolska",
        "id": "Wigry National Park"
      }
    },
    {
      "type": "Feature",
      "geometry": {
        "type": "Point",
        "coordinates": [
          23.009796142578125,
          54.08428955078125
        ]
      },
      "properties": {
        "date": "2019-08-04 17:13:43",
        "name": "Wigry National Park",
        "address": "Krzywe 82\n16-402 Krzywe\nPolska",
        "id": "Wigry National Park"
      }
    },
    {
      "type": "Feature",
      "geometry": {
        "type": "Point",
        "coordinates": [
          23.075651168823242,
          54.07533264160156
        ]
      },
      "properties": {
        "date": "2019-08-04 19:02:13",
        "name": "Muzeum Wigier",
        "address": "Stary Folwark 50\n16-402 Stary Folwark\nPolska",
        "id": "Muzeum Wigier"
      }
    },
    {
      "type": "Feature",
      "geometry": {
        "type": "Point",
        "coordinates": [
          23.176301956176758,
          54.05537414550781
        ]
      },
      "properties": {
        "date": "2019-08-05 08:16:49",
        "name": "Czarna Hańcza",
        "address": "16-503 Maćkowa Ruda\nPolska",
        "id": "Czarna Hańcza"
      }
    },
    {
      "type": "Feature",
      "geometry": {
        "type": "Point",
        "coordinates": [
          23.144384384155273,
          54.03230667114258
        ]
      },
      "properties": {
        "marker-color": "#7e7e7e",
        "marker-size": "medium",
        "marker-symbol": "",
        "date": "2019-08-05 15:00:30",
        "name": "Piaski plaża",
        "address": "16-503 MikołajewoPolska",
        "id": "Piaski plaża"
      }
    },
    {
      "type": "Feature",
      "geometry": {
        "type": "Point",
        "coordinates": [
          23.075746536254883,
          53.99958419799805
        ]
      },
      "properties": {
        "date": "2019-08-05 16:54:40",
        "name": "Sklep ABC",
        "address": "Bryzgiel 16\n16-304 Bryzgiel\nPoland",
        "id": "Sklep ABC"
      }
    },
    {
      "type": "Feature",
      "geometry": {
        "type": "Point",
        "coordinates": [
          23.087295532226562,
          53.98353958129883
        ]
      },
      "properties": {
        "date": "2019-08-05 17:30:09",
        "name": "Kościół rzymskokatolicki Matki Bożej Anielskiej",
        "address": "16-304 Monkinie\nPolska",
        "id": "Kościół rzymskokatolicki Matki Bożej Anielskiej"
      }
    },
    {
      "type": "Feature",
      "geometry": {
        "type": "Point",
        "coordinates": [
          23.10259246826172,
          53.95967483520508
        ]
      },
      "properties": {
        "date": "2019-08-05 17:40:33",
        "name": "Noclegi u Ewy",
        "address": "Danowskie 19H\n16-304 Danowskie\nPolska",
        "id": "Noclegi u Ewy"
      }
    },
    {
      "type": "Feature",
      "geometry": {
        "type": "Point",
        "coordinates": [
          23.087295532226562,
          53.98353958129883
        ]
      },
      "properties": {
        "date": "2019-08-05 18:30:36",
        "name": "Kościół rzymskokatolicki Matki Bożej Anielskiej",
        "address": "16-304 Monkinie\nPolska",
        "id": "Kościół rzymskokatolicki Matki Bożej Anielskiej"
      }
    },
    {
      "type": "Feature",
      "geometry": {
        "type": "Point",
        "coordinates": [
          23.075368881225586,
          53.999359130859375
        ]
      },
      "properties": {
        "date": "2019-08-06 14:23:53",
        "name": "Wigraszek",
        "address": "Bryzgiel 19A\n16-304 Bryzgiel\nPolska",
        "id": "Wigraszek"
      }
    },
    {
      "type": "Feature",
      "geometry": {
        "type": "Point",
        "coordinates": [
          22.335426330566406,
          53.81648635864258
        ]
      },
      "properties": {
        "date": "2019-08-06 18:46:31",
        "name": "Maćka z Bogdańca 9",
        "address": "Maćka z Bogdańca 9\n19-300 Ełk\nPolska",
        "id": "Maćka z Bogdańca 9"
      }
    },
	{
      "type": "Feature",
      "geometry": {
        "type": "Point",
        "coordinates": [
          22.354164123535156,
          53.832916259765625
        ]
      },
      "properties": {
        "date": "2019-08-07 07:19:11",
        "name": "Lidl",
        "address": "Generała Władysława Sikorskiego 13\n19-300 Ełk\nPolska",
        "id": "Lidl"
      }
    },
    {
      "type": "Feature",
      "geometry": {
        "type": "Point",
        "coordinates": [
          22.158069610595703,
          53.818763732910156
        ]
      },
      "properties": {
        "date": "2019-08-07 13:20:17",
        "name": "Camping \"SIEDLISKO ROŻYŃSK\"",
        "address": "Rożyńsk 39D\n12-250 Rożyńsk\nPolska",
        "id": "Camping \"SIEDLISKO ROŻYŃSK\""
      }
    },
    {
      "type": "Feature",
      "geometry": {
        "type": "Point",
        "coordinates": [
          21.572837829589844,
          53.8004035949707
        ]
      },
      "properties": {
        "date": "2019-08-08 14:20:53",
        "name": "Mikołajki Rynek",
        "address": "plac Wolności\n11-730 Mikołajki\nPolska",
        "id": "Mikołajki Rynek"
      }
    },
    {
      "type": "Feature",
      "geometry": {
        "type": "Point",
        "coordinates": [
          21.545640528202057,
          53.93766988573453
        ]
      },
      "properties": {
        "date": "2019-08-08 19:38:07",
        "name": "Urząd Miasta Ryn",
        "address": "Ratuszowa 2\n11-520 Ryn\nPolska",
        "id": "Urząd Miasta Ryn"
      }
    },
    {
      "type": "Feature",
      "geometry": {
        "type": "Point",
        "coordinates": [
          21.774656295776367,
          54.03797149658203
        ]
      },
      "properties": {
        "date": "2019-08-09 15:02:47",
        "name": "Targowisko Miejskie",
        "address": "11-508 Giżycko\nPolska",
        "id": "Targowisko Miejskie"
      }
    },
    {
      "type": "Feature",
      "geometry": {
        "type": "Point",
        "coordinates": [
          21.446989059448242,
          53.917823791503906
        ]
      },
      "properties": {
        "date": "2019-08-09 17:03:31",
        "name": 1,
        "address": "Sądry 1\n11-700 Sądry\nPolska",
        "id": 1
      }
    },
    {
      "type": "Feature",
      "geometry": {
        "type": "Point",
        "coordinates": [
          21.315458297729492,
          53.858367919921875
        ]
      },
      "properties": {
        "date": "2019-08-09 17:40:00",
        "name": "Plaża Miejska Mrągowo",
        "address": "Osiedle Grunwaldzkie 18\n11-700 Mrągowo\nPolska",
        "id": "Plaża Miejska Mrągowo"
      }
    },
    {
      "type": "Feature",
      "geometry": {
        "type": "Point",
        "coordinates": [
          21.315458297729492,
          53.858367919921875
        ]
      },
      "properties": {
        "date": "2019-08-09 18:34:08",
        "name": "Plaża Miejska Mrągowo",
        "address": "Osiedle Grunwaldzkie 18\n11-700 Mrągowo\nPolska",
        "id": "Plaża Miejska Mrągowo"
      }
    },
    {
      "type": "Feature",
      "geometry": {
        "type": "Point",
        "coordinates": [
          21.2946720123291,
          53.85059356689453
        ]
      },
      "properties": {
        "marker-color": "#7e7e7e",
        "marker-size": "medium",
        "marker-symbol": "",
        "date": "2019-08-10 08:59:52",
        "name": "Muzeum sprzętu wojskowego",
        "address": "Przemysłowa 11C11-700 MrągowoPolska",
        "id": "Muzeum sprzętu wojskowego"
      }
    },
    {
      "type": "Feature",
      "geometry": {
        "type": "Point",
        "coordinates": [
          18.375532150268555,
          54.80830764770508
        ]
      },
      "properties": {
        "date": "2019-08-10 17:28:22",
        "name": "Kemping Alexa",
        "address": "aleja Żeromskiego 44\n84-120 Chłapowo\nPolska",
        "id": "Kemping Alexa"
      }
    },
    {
      "type": "Feature",
      "geometry": {
        "type": "Point",
        "coordinates": [
          18.375532150268555,
          54.80830764770508
        ]
      },
      "properties": {
        "date": "2019-08-10 18:52:47",
        "name": "Alexa Camping",
        "address": "aleja Żeromskiego 44\n84-120 Chłapowo\nPolska",
        "id": "Alexa Camping"
      }
    },
    {
      "type": "Feature",
      "geometry": {
        "type": "Point",
        "coordinates": [
          18.375532150268555,
          54.80830764770508
        ]
      },
      "properties": {
        "date": "2019-08-12 12:21:28",
        "name": "Alexa Camping",
        "address": "aleja Żeromskiego 44\n84-120 Chłapowo\nPolska",
        "id": "Alexa Camping"
      }
    },
    {
      "type": "Feature",
      "geometry": {
        "type": "Point",
        "coordinates": [
          18.331262588500977,
          54.82919692993164
        ]
      },
      "properties": {
        "date": "2019-08-14 11:00:58",
        "name": "Fregata",
        "address": "Borcharda\n84-104 Jastrzębia Góra\nPolska",
        "id": "Fregata"
      }
    },
    {
      "type": "Feature",
      "geometry": {
        "type": "Point",
        "coordinates": [
          18.331262588500977,
          54.82919692993164
        ]
      },
      "properties": {
        "date": "2019-08-14 12:57:24",
        "name": "Fregata",
        "address": "Borcharda\n84-104 Jastrzębia Góra\nPolska",
        "id": "Fregata"
      }
    },
    {
      "type": "Feature",
      "geometry": {
        "type": "Point",
        "coordinates": [
          18.707538604736328,
          53.341495513916016
        ]
      },
      "properties": {
        "date": "2019-08-14 16:20:51",
        "name": "Restauracja McDonald's",
        "address": "86-230 Malankowo\nPolska",
        "id": "Restauracja McDonald's"
      }
    },
    {
      "type": "Feature",
      "geometry": {
        "type": "Point",
        "coordinates": [
          19.35660171508789,
          52.340641021728516
        ]
      },
      "properties": {
        "date": "2019-08-14 19:07:40",
        "name": "MOP Strzelce",
        "address": "Autostrada Bursztynowa\nPolska",
        "id": "MOP Strzelce"
      }
    },
    {
      "type": "Feature",
      "properties": {
        "marker-color": "#7e7e7e",
        "marker-size": "medium",
        "marker-symbol": "",
        "name": "Wrocław",
        "id": "Wrocław",
        "date": "2019-08-14 23:23:22"
      },
      "geometry": {
        "type": "Point",
        "coordinates": [
          17.0343017578125,
          51.10977326953468
        ]
      }
    }
  ]
}