{
  "type": "FeatureCollection",
  "features": [
    {
      "type": "Feature",
      "geometry": {
        "type": "Point",
        "coordinates": [
          17.1465898,
          51.1282327,
          0
        ]
      },
      "properties": {
        "name": "Sportowa, Wilczyce",
        "tessellate": -1,
        "extrude": 0,
        "visibility": -1,
        "date": "2020-05-30"
      }
    },
    {
      "type": "Feature",
      "geometry": {
        "type": "Point",
        "coordinates": [
          16.6875911,
          47.8442379,
          0
        ]
      },
      "properties": {
        "name": "Camping Oggau",
        "tessellate": -1,
        "extrude": 0,
        "visibility": -1,
        "dayOffset": 0
      }
    },
    {
      "type": "Feature",
      "geometry": {
        "type": "Point",
        "coordinates": [
          13.837402,
          46.2789832,
          0
        ]
      },
      "properties": {
        "name": "Camp Zlatorog Bohinj, Ukanc, Bohinjsko jezero, Słowenia",
        "tessellate": -1,
        "extrude": 0,
        "visibility": -1,
        "dayOffset": 1
      }
    },
    {
      "type": "Feature",
      "geometry": {
        "type": "Point",
        "coordinates": [
          14.4266964,
          40.8283583,
          0
        ]
      },
      "properties": {
        "marker-color": "#7e7e7e",
        "marker-size": "medium",
        "marker-symbol": "",
        "name": "Wezuwiusz Parking",
        "tessellate": -1,
        "extrude": 0,
        "visibility": -1,
        "dayOffset": 3
      }
    },
    {
      "type": "Feature",
      "geometry": {
        "type": "Point",
        "coordinates": [
          15.8420047,
          38.1647647,
          0
        ]
      },
      "properties": {
        "name": "Park Narodowy Aspromonte, Via Aurora, Santo Stefano in Aspromonte, Prowincja Reggio di Calabria, Włochy",
        "tessellate": -1,
        "extrude": 0,
        "visibility": -1,
        "dayOffset": 4
      }
    },
    {
      "type": "Feature",
      "geometry": {
        "type": "Point",
        "coordinates": [
          14.999093,
          37.6994872,
          0
        ]
      },
      "properties": {
        "marker-color": "#7e7e7e",
        "marker-size": "medium",
        "marker-symbol": "",
        "name": "Etna Parking",
        "tessellate": -1,
        "extrude": 0,
        "visibility": -1,
        "dayOffset": 5
      }
    },
    {
      "type": "Feature",
      "geometry": {
        "type": "Point",
        "coordinates": [
          15.2866096,
          37.075402,
          0
        ]
      },
      "properties": {
        "name": "Syrakuzy, Prowincja Syrakuzy, Włochy",
        "tessellate": -1,
        "extrude": 0,
        "visibility": -1,
        "dayOffset": 6
      }
    },
    {
      "type": "Feature",
      "geometry": {
        "type": "Point",
        "coordinates": [
          15.0928984,
          36.968332,
          0
        ]
      },
      "properties": {
        "name": "Oriented Nature Reserve Cavagrande, Contrada Avola Antica, Avola, Prowincja Syrakuzy, Włochy",
        "tessellate": -1,
        "extrude": 0,
        "visibility": -1,
        "dayOffset": 7
      }
    },
    {
      "type": "Feature",
      "properties": {
        "marker-color": "#7e7e7e",
        "marker-size": "medium",
        "marker-symbol": "",
        "name": "Terminal Fusina"
      },
      "geometry": {
        "type": "Point",
        "coordinates": [
          12.254819869995117,
          45.42039077602037
        ]
      }
    },
    {
      "type": "Feature",
      "properties": {
        "marker-color": "#7e7e7e",
        "marker-size": "medium",
        "marker-symbol": "",
        "name": "Peschiera del Garda Camper Area"
      },
      "geometry": {
        "type": "Point",
        "coordinates": [
          10.684611797332764,
          45.43965820534414
        ]
      }
    },
    {
      "type": "Feature",
      "properties": {
        "marker-color": "#7e7e7e",
        "marker-size": "medium",
        "marker-symbol": "",
        "name": "Plaża w Syrakuzach"
      },
      "geometry": {
        "type": "Point",
        "coordinates": [
          15.332182645797728,
          37.00443763998404
        ]
      }
    },
    {
      "type": "Feature",
      "properties": {
        "marker-color": "#7e7e7e",
        "marker-size": "medium",
        "marker-symbol": "",
        "name": "Ogladanie Ortiga"
      },
      "geometry": {
        "type": "Point",
        "coordinates": [
          15.28622031211853,
          37.064526461164725
        ]
      }
    }
  ]
}